{
  "type": "FeatureCollection",
  "features": [
    {
      "type": "Feature",
      "properties": {
        "nazev": "KGI"
      },
      "geometry": {
        "type": "Point",
        "coordinates": [
          17.265379428863522,
          49.59382745059988
        ]
      }
    },
    {
      "type": "Feature",
      "properties": {
        "nazev": "NH Hotel"
      },
      "geometry": {
        "type": "Point",
        "coordinates": [
          17.246582508087158,
          49.60128205373476
        ]
      }
    },
    {
      "type": "Feature",
      "properties": {
        "nazev": "Drápal"
      },
      "geometry": {
        "type": "Point",
        "coordinates": [
          17.249736785888672,
          49.59165065844482
        ]
      }
    },
    {
      "type": "Feature",
      "properties": {
        "marker-color": "#7e7e7e",
        "marker-size": "medium",
        "marker-symbol": "",
        "nazev": "U Kuděje"
      },
      "geometry": {
        "type": "Point",
        "coordinates": [
          17.243642807006836,
          49.59334063650692
        ]
      }
    },
    {
      "type": "Feature",
      "properties": {
        "marker-color": "#7e7e7e",
        "marker-size": "medium",
        "marker-symbol": "",
        "nazev": "Bistrá Kráva"
      },
      "geometry": {
        "type": "Point",
        "coordinates": [
          17.255358695983887,
          49.59521832123456
        ]
      }
    },
    {
      "type": "Feature",
      "properties": {
        "stroke": "#555555",
        "stroke-width": 2,
        "stroke-opacity": 1,
        "fill": "#555555",
        "fill-opacity": 0.5
      },
      "geometry": {
        "type": "Polygon",
        "coordinates": [
          [
            [
              17.259135246276852,
              49.602116453316434
            ],
            [
              17.257590293884277,
              49.600864848589396
            ],
            [
              17.260036468505856,
              49.59978009850533
            ],
            [
              17.26175308227539,
              49.601059544768134
            ],
            [
              17.259349822998047,
              49.60228333151933
            ],
            [
              17.259135246276852,
              49.602116453316434
            ]
          ]
        ]
      }
    }
  ]
}